<?xml version='1.0' encoding='UTF-8'?><kml xmlns='http://www.opengis.net/kml/2.2'><Document>
<Placemark id="1  ">
   <name>Helsinki</name>
   <description><![CDATA[<h2>Helsinki  <br/>Uusimaa  </h2>pop:1,071,599]]></description>
   <address>Helsinki  Uusimaa</address>
    <Point><coordinates>24.93265,60.17116,0</coordinates></Point>
</Placemark>

<Placemark id="2  ">
   <name>Tampere</name>
   <description><![CDATA[<h2>Tampere  <br/>Pirkanmaa  </h2>pop:292,288]]></description>
   <address>Tampere  Pirkanmaa</address>
    <Point><coordinates>23.76226,61.49781,0</coordinates></Point>
</Placemark>

<Placemark id="3  ">
   <name>Turku</name>
   <description><![CDATA[<h2>Turku  <br/>Finland Proper  </h2>pop:246,312]]></description>
   <address>Turku</address>
    <Point><coordinates>22.25155,60.4528,0</coordinates></Point>
</Placemark>

<Placemark id="4  ">
   <name>Oulu</name>
   <description><![CDATA[<h2>Oulu  <br/>Northern Ostrobothnia  </h2>pop:171,345]]></description>
   <address>Oulu</address>
    <Point><coordinates>25.4735,65.0103,0</coordinates></Point>
</Placemark>

<Placemark id="5  ">
   <name>Lahti</name>
   <description><![CDATA[<h2>Lahti  <br/>P&#228;ij&#228;nne Tavastia  </h2>pop:112,187]]></description>
   <address>Lahti</address>
    <Point><coordinates>25.65739,60.98299,0</coordinates></Point>
</Placemark>

<Placemark id="6  ">
   <name>Jyv&amp;#228;skyl&amp;#228;</name>
   <description><![CDATA[<h2>Jyv&#228;skyl&#228;  <br/>Central Finland  </h2>pop:105,760]]></description>
   <address>Jyv&amp;#228;skyl&amp;#228;  Central Finland</address>
    <Point><coordinates>25.75129,62.24049,0</coordinates></Point>
</Placemark>

<Placemark id="7  ">
   <name>Pori</name>
   <description><![CDATA[<h2>Pori  <br/>Satakunta  </h2>pop:93,220]]></description>
   <address>Pori  Satakunta</address>
    <Point><coordinates>21.79537,61.48596,0</coordinates></Point>
</Placemark>

<Placemark id="8  ">
   <name>Kuopio</name>
   <description><![CDATA[<h2>Kuopio  <br/>Northern Savonia  </h2>pop:79,750]]></description>
   <address>Kuopio</address>
    <Point><coordinates>27.67612,62.89313,0</coordinates></Point>
</Placemark>

<Placemark id="9  ">
   <name>Vaasa</name>
   <description><![CDATA[<h2>Vaasa  <br/>Ostrobothnia  </h2>pop:62,106]]></description>
   <address>Vaasa</address>
    <Point><coordinates>21.62624,63.09838,0</coordinates></Point>
</Placemark>

<Placemark id="10  ">
   <name>Kotka</name>
   <description><![CDATA[<h2>Kotka  <br/>Kymenlaakso  </h2>pop:53,206]]></description>
   <address>Kotka  Kymenlaakso</address>
    <Point><coordinates>26.94648,60.46631,0</coordinates></Point>
</Placemark>

<Placemark id="11  ">
   <name>Lappeenranta</name>
   <description><![CDATA[<h2>Lappeenranta  <br/>South Karelia  </h2>pop:53,011]]></description>
   <address>Lappeenranta</address>
    <Point><coordinates>28.18901,61.05533,0</coordinates></Point>
</Placemark>

<Placemark id="12  ">
   <name>Joensuu</name>
   <description><![CDATA[<h2>Joensuu  <br/>North Karelia  </h2>pop:52,493]]></description>
   <address>Joensuu</address>
    <Point><coordinates>29.75926,62.60422,0</coordinates></Point>
</Placemark>

<Placemark id="13  ">
   <name>Kouvola</name>
   <description><![CDATA[<h2>Kouvola  <br/>Kymenlaakso  </h2>pop:50,667]]></description>
   <address>Kouvola  Kymenlaakso</address>
    <Point><coordinates>26.70318,60.87125,0</coordinates></Point>
</Placemark>

<Placemark id="14  ">
   <name>Hyvink&amp;#228;&amp;#228;</name>
   <description><![CDATA[<h2>Hyvink&#228;&#228;  <br/>Uusimaa  </h2>pop:47,032]]></description>
   <address>Hyvink&amp;#228;&amp;#228;  Uusimaa</address>
    <Point><coordinates>24.8574,60.62929,0</coordinates></Point>
</Placemark>

<Placemark id="15  ">
   <name>Rovaniemi</name>
   <description><![CDATA[<h2>Rovaniemi  <br/>Lapland  </h2>pop:46,443]]></description>
   <address>Rovaniemi  Lapland</address>
    <Point><coordinates>25.728,66.50355,0</coordinates></Point>
</Placemark>

<Placemark id="16  ">
   <name>H&amp;#228;meenlinna</name>
   <description><![CDATA[<h2>H&#228;meenlinna  <br/>Tavastia Proper  </h2>pop:46,112]]></description>
   <address>H&amp;#228;meenlinna</address>
    <Point><coordinates>24.46626,60.99689,0</coordinates></Point>
</Placemark>

<Placemark id="17  ">
   <name>Sein&amp;#228;joki</name>
   <description><![CDATA[<h2>Sein&#228;joki  <br/>Southern Ostrobothnia  </h2>pop:41,213]]></description>
   <address>Sein&amp;#228;joki</address>
    <Point><coordinates>22.83961,62.79069,0</coordinates></Point>
</Placemark>

<Placemark id="18  ">
   <name>Porvoo</name>
   <description><![CDATA[<h2>Porvoo  <br/>Uusimaa  </h2>pop:35,652]]></description>
   <address>Porvoo  Uusimaa</address>
    <Point><coordinates>25.67008,60.39631,0</coordinates></Point>
</Placemark>

<Placemark id="19  ">
   <name>Mikkeli</name>
   <description><![CDATA[<h2>Mikkeli  <br/>Southern Savonia  </h2>pop:35,573]]></description>
   <address>Mikkeli</address>
    <Point><coordinates>27.27126,61.68674,0</coordinates></Point>
</Placemark>

<Placemark id="20  ">
   <name>Rauma</name>
   <description><![CDATA[<h2>Rauma  <br/>Satakunta  </h2>pop:34,722]]></description>
   <address>Rauma  Satakunta</address>
    <Point><coordinates>21.51051,61.13115,0</coordinates></Point>
</Placemark>

</Document></kml>