<?xml version='1.0' encoding='UTF-8'?><kml xmlns='http://www.opengis.net/kml/2.2'><Document>
<Style id='000000'>
<IconStyle><Icon><href>http://www.developer.nokia.com/Community/Wiki/images/0/02/000000.png</href></Icon>
<hotSpot x="16" y="0" xunits="pixels" yunits="pixels"/></IconStyle>
</Style>
<Style id='0000FF'>
<IconStyle><Icon><href>http://www.developer.nokia.com/Community/Wiki/images/e/e5/0000FF.png</href></Icon>
<hotSpot x="16" y="0" xunits="pixels" yunits="pixels"/>
</IconStyle>
</Style>
<Style id='FF0000'>
<IconStyle><Icon><href>http://www.developer.nokia.com/Community/Wiki/images/9/99/FF0000.png</href></Icon>
<hotSpot x="16" y="0" xunits="pixels" yunits="pixels"/>
</IconStyle>
</Style>
<Style id='FFFF00'>
<IconStyle><Icon><href>http://www.developer.nokia.com/Community/Wiki/images/6/68/FFFF00.png</href></Icon>
<hotSpot x="16" y="32" xunits="pixels" yunits="pixels"/>
</IconStyle>
</Style>
<Style id='FFFFFF'>
<IconStyle><Icon><href>http://www.developer.nokia.com/Community/Wiki/images/d/de/FFFFFF.png</href></Icon>
<hotSpot x="16" y="32" xunits="pixels" yunits="pixels"/>
</IconStyle>
</Style>
<Placemark>
<name>Aston Villa</name>
<description><![CDATA[<div ><a href='http://www.avfc.premiumtv.co.uk' >Aston Villa</a></div><div >Villa Park<br>Capacity: 42,573</div>]]></description>
<Point><coordinates>-1.88484460115433,52.5091331805643,0</coordinates></Point>
<Style><IconStyle><Icon><href>http://www.developer.nokia.com/Community/Wiki/images/3/35/Whav.png?20120103142059</href>	</Icon></IconStyle></Style>
</Placemark>
<Placemark>
<name>West Ham</name>
<description><![CDATA[<div ><a href='http://www.whufc.com' >West Ham United</a></div><div >Upton Park<br>Capacity: 35,647</div>]]></description>
<Point><coordinates>0.0393962860107422,51.5319077565243,0</coordinates></Point>
<Style><IconStyle><Icon><href>http://www.developer.nokia.com/Community/Wiki/images/3/35/Whav.png?20120103142059</href>	</Icon></IconStyle></Style>
</Placemark>
<Placemark>
<name>Newcastle United</name>
<description><![CDATA[<div><a href='http://www.nufc.com/'>Newcastle United</a></div><div>St James' Park<br>Capacity: 52,316</div>]]></description>
<Point><coordinates>-1.62162870168686,54.9755509420124,0</coordinates></Point>
<Style><IconStyle><Icon><href>http://www.developer.nokia.com/Community/Wiki/images/8/8e/Nufc.png?20120103142316</href>	</Icon></IconStyle></Style>
</Placemark>
<Placemark>
<name>Arsenal</name>
<description><![CDATA[<div><a href='http://www.arsenal.com'>Arsenal</a></div><div>Emirates Stadium<br>Capacity: 60,432</div>]]></description>
<Point><coordinates>-0.108500719070435,51.5550345889745,0</coordinates></Point>
<Style><IconStyle><Icon><href>http://www.developer.nokia.com/Community/Wiki/images/c/c2/Arsnl.png?20120103141632</href>	</Icon></IconStyle></Style>
</Placemark>
<Placemark>
<name>Wigan Athletic</name>
<description><![CDATA[<div ><a href='http://www.wiganlatics.premiumtv.co.uk' >Wigan Athletic</a></div><div >JJB Stadium<br>Capacity: 25,138</div>]]></description>
<Point><coordinates>-2.65415579080582,53.5476866063421,0</coordinates></Point>
<Style><IconStyle><Icon><href>http://www.developer.nokia.com/Community/Wiki/images/f/f7/Wfc.png?20120103142430</href>	</Icon></IconStyle></Style>
</Placemark>
<Placemark>
<name>Blackburn Rovers</name>
<description><![CDATA[<div ><a href='http://www.rovers.premiumtv.co.uk' >Blackburn Rovers</a></div><div >Ewood Park<br>Capacity: 31,367</div>]]></description>
<Point><coordinates>-2.48921602964401,53.7285724665396,0</coordinates></Point>
<Style><IconStyle><Icon><href>http://www.developer.nokia.com/Community/Wiki/images/5/56/Brfc.png?20120103142559</href>	</Icon></IconStyle></Style>
</Placemark>
<Placemark>
<name>Sheffield United</name>
<description><![CDATA[<div ><a href='http://www.sufc.premiumtv.co.uk' >Sheffield United</a></div><div >Bramall Lane<br>Capacity: 33,000</div>]]></description>
<Point><coordinates>-1.47085100412369,53.370343798319,0</coordinates></Point>
<Style><IconStyle><Icon><href>http://www.developer.nokia.com/Community/Wiki/images/8/8f/Sufc.png?20120103142745</href>	</Icon></IconStyle></Style>
</Placemark>
<Placemark>
<name>Manchester United</name>
<description><![CDATA[<div><a href='http://www.manutd.com'>Manchester United</a></div><div>Old Trafford<br>Capacity: 76,000</div>]]></description>
<Point><coordinates>-2.29132533073425,53.463043359365,0</coordinates></Point>
<styleUrl>#FF0000</styleUrl>
</Placemark>
<Placemark>
<name>Manchester City</name>
<description><![CDATA[<div><a href='http://www.mcfc.co.uk' >Manchester City</a></div><div >City of Manchester Stadium<br>Capacity: 48,000</div>]]></description>
<Point><coordinates>-2.2211828827858,53.4393381986981,0</coordinates></Point>
<styleUrl>#1080dd</styleUrl>
</Placemark>
<Placemark>
<name>Liverpool</name>
<description><![CDATA[<div ><a href='http://www.liverpoolfc.tv' >Liverpool</a></div><div >Anfield<br>Capacity: 45,362</div>]]></description>
<Point><coordinates>-2.96082615852356,53.4308166986509,0</coordinates></Point>
<styleUrl>#FF0000</styleUrl>
</Placemark>
<Placemark>
<name>Everton</name>
<description><![CDATA[<div ><a href='http://www.evertonfc.com' >Everton</a></div><div >Goodison Park<br>Capacity: 40,569</div>]]></description>
<Point><coordinates>-2.96632468700409,53.438828522666,0</coordinates></Point>
<styleUrl>#0000FF</styleUrl>
</Placemark>
<Placemark>
<name>Chelsea</name>
<description><![CDATA[<div ><a href='http://www.chelseafc.com/' >Chelsea</a></div><div >Stamford Bridge<br>Capacity: 42,449</div>]]></description>
<Point><coordinates>-0.190978646278381,51.4817186445311,0</coordinates></Point>
<styleUrl>#0000FF</styleUrl>
</Placemark>
<Placemark>
<name>Tottenham Hotspur</name>
<description><![CDATA[<div ><a href='http://www.tottenhamhotspur.com/' >Tottenham Hotspur</a></div><div >White Hart Lane<br>Capacity: 36,240</div>]]></description>
<Point><coordinates>-0.0657999515533447,51.6033054661156,0</coordinates></Point>
<styleUrl>#FFFFFF</styleUrl>
</Placemark>
<Placemark>
<name>Middlesborough</name>
<description><![CDATA[<div ><a href='http://www.mfc.premiumtv.co.uk' >Middlesbrough</a></div><div >Riverside Stadium<br>Capacity: 35,100</div>]]></description>
<Point><coordinates>-1.21696650981903,54.5783022217098,0</coordinates></Point>
<styleUrl>#FF0000</styleUrl>
</Placemark>
<Placemark>
<name>Bolton Wanderers</name>
<description><![CDATA[<div ><a href='http://www.bwfc.premiumtv.co.uk' >Bolton Wanderers</a></div><div >Reebok Stadium<br>Capacity: 28,723</div>]]></description>
<Point><coordinates>-2.5356262922287,53.5805761921257,0</coordinates></Point>
<styleUrl>#FFFFFF</styleUrl>
</Placemark>
<Placemark>
<name>Charlton Athletic</name>
<description><![CDATA[<div ><a href='http://www.cafc.co.uk/' >Charlton Athletic</a></div><div >The Valley<br>Capacity: 27,111</div>]]></description>
<Point><coordinates>0.0365424156188965,51.486367086419,0</coordinates></Point>
<styleUrl>#FF0000</styleUrl>
</Placemark>
<Placemark>
<name>Reading</name>
<description><![CDATA[<a href='http://www.readingfc.premiumtv.co.uk' >Reading</a></div><div >Madejski Stadium<br>Capacity: 24,045</div>]]></description>
<Point><coordinates>-0.982664823532104,51.4223530191283,0</coordinates></Point>
<styleUrl>#0000FF</styleUrl>
</Placemark>
<Placemark>
<name>Fulham</name>
<description><![CDATA[<div ><a href='http://www.fulhamfc.com' >Fulham</a></div><div >Craven Cottage <br>Capacity: 22,480</div>]]></description>
<Point><coordinates>-0.221641659736633,51.4748946151993,0</coordinates></Point>
<styleUrl>#FFFFFF</styleUrl>
</Placemark>
<Placemark>
<name>Portsmouth</name>
<description><![CDATA[<div ><a href='http://www.pompeyfc.premiumtv.co.uk' >Portsmouth</a></div><div >Fratton Park<br>Capacity: 20,288</div>]]></description>
<Point><coordinates>-1.06383115053177,50.7963687532203,0</coordinates></Point>
<styleUrl>#0000FF</styleUrl>
</Placemark>
<Placemark>
<name>Watford</name>
<description><![CDATA[<div ><a href='http://www.watfordfc.premiumtv.co.uk' >Watford</a></div><div >Vicarage Road<br>Capacity: 19,920</div>]]></description>
<Point><coordinates>-0.401580333709717,51.6499141492462,0</coordinates></Point>
<styleUrl>#FFFF00</styleUrl>
</Placemark>
</Document></kml>