{
"type": "FeatureCollection",
"crs": { "type": "name", "properties": { "name": "urn:ogc:def:crs:OGC:1.3:CRS84" } },
"features": [
{ "type": "Feature", "properties": { "Name": "Aston Villa",
"Icon" : "http://www.developer.nokia.com/Community/Wiki/images/3/35/Whav.png",
"Description": "<div ><a href='http:\/\/www.avfc.premiumtv.co.uk' >Aston Villa<\/a><\/div><div >Villa Park<br>Capacity: 42,573<\/div>" }, "geometry": { "type": "Point", "coordinates": [ -1.88484460115433, 52.509133180564298, 0.0 ] } },
{ "type": "Feature", "properties": { "Name": "West Ham", 
"Icon" : "http://www.developer.nokia.com/Community/Wiki/images/3/35/Whav.png",
"Description": "<div ><a href='http:\/\/www.whufc.com' >West Ham United<\/a><\/div><div >Upton Park<br>Capacity: 35,647<\/div>" }, "geometry": { "type": "Point", "coordinates": [ 0.039396286010742, 51.531907756524298, 0.0 ] } },
{ "type": "Feature", "properties": { "Name": "Newcastle United", 
"Icon" : "http://www.developer.nokia.com/Community/Wiki/images/8/8e/Nufc.png",
"Description": "<div><a href='http:\/\/www.nufc.com\/'>Newcastle United<\/a><\/div><div>St James' Park<br>Capacity: 52,316<\/div>" }, "geometry": { "type": "Point", "coordinates": [ -1.62162870168686, 54.975550942012397, 0.0 ] } },
{ "type": "Feature", "properties": { "Name": "Arsenal", 
"Icon" : "http://www.developer.nokia.com/Community/Wiki/images/c/c2/Arsnl.png",
"Description": "<div><a href='http:\/\/www.arsenal.com'>Arsenal<\/a><\/div><div>Emirates Stadium<br>Capacity: 60,432<\/div>" }, "geometry": { "type": "Point", "coordinates": [ -0.108500719070435, 51.5550345889745, 0.0 ] } },
{ "type": "Feature", "properties": { "Name": "Wigan Athletic", 
"Icon" : "http://www.developer.nokia.com/Community/Wiki/images/f/f7/Wfc.png",
"Description": "<div ><a href='http:\/\/www.wiganlatics.premiumtv.co.uk' >Wigan Athletic<\/a><\/div><div >JJB Stadium<br>Capacity: 25,138<\/div>" }, "geometry": { "type": "Point", "coordinates": [ -2.65415579080582, 53.547686606342097, 0.0 ] } },
{ "type": "Feature", "properties": { "Name": "Blackburn Rovers",
"Icon" : "http://www.developer.nokia.com/Community/Wiki/images/5/56/Brfc.png",
 "Description": "<div ><a href='http:\/\/www.rovers.premiumtv.co.uk' >Blackburn Rovers<\/a><\/div><div >Ewood Park<br>Capacity: 31,367<\/div>" }, "geometry": { "type": "Point", "coordinates": [ -2.48921602964401, 53.728572466539603, 0.0 ] } },
{ "type": "Feature", "properties": { "Name": "Sheffield United", 
"Icon" : "http://www.developer.nokia.com/Community/Wiki/images/8/8f/Sufc.png",
"Description": "<div ><a href='http:\/\/www.sufc.premiumtv.co.uk' >Sheffield United<\/a><\/div><div >Bramall Lane<br>Capacity: 33,000<\/div>" }, "geometry": { "type": "Point", "coordinates": [ -1.47085100412369, 53.370343798318999, 0.0 ] } },
{ "type": "Feature", "properties": { "Name": "Manchester United", 
"Color" : "#FF0000",
"Description": "<div><a href='http:\/\/www.manutd.com'>Manchester United<\/a><\/div><div>Old Trafford<br>Capacity: 76,000<\/div>" }, "geometry": { "type": "Point", "coordinates": [ -2.29132533073425, 53.463043359365003, 0.0 ] } },
{ "type": "Feature", "properties": { "Name": "Manchester City", 
"Description": "<div><a href='http:\/\/www.mcfc.co.uk' >Manchester City<\/a><\/div><div >City of Manchester Stadium<br>Capacity: 48,000<\/div>" }, "geometry": { "type": "Point", "coordinates": [ -2.2211828827858, 53.439338198698103, 0.0 ] } },
{ "type": "Feature", "properties": { "Name": "Liverpool", 
"Color" : "#FF0000",
"Description": "<div ><a href='http:\/\/www.liverpoolfc.tv' >Liverpool<\/a><\/div><div >Anfield<br>Capacity: 45,362<\/div>" }, "geometry": { "type": "Point", "coordinates": [ -2.96082615852356, 53.430816698650901, 0.0 ] } },
{ "type": "Feature", "properties": { "Name": "Everton",
"Color" : "#0000FF",
 "Description": "<div ><a href='http:\/\/www.evertonfc.com' >Everton<\/a><\/div><div >Goodison Park<br>Capacity: 40,569<\/div>" }, "geometry": { "type": "Point", "coordinates": [ -2.96632468700409, 53.438828522666, 0.0 ] } },
{ "type": "Feature", "properties": { "Name": "Chelsea",
"Color" : "#0000FF",
 "Description": "<div ><a href='http:\/\/www.chelseafc.com\/' >Chelsea<\/a><\/div><div >Stamford Bridge<br>Capacity: 42,449<\/div>" }, "geometry": { "type": "Point", "coordinates": [ -0.190978646278381, 51.481718644531099, 0.0 ] } },
{ "type": "Feature", "properties": { "Name": "Tottenham Hotspur",
"Color" : "#FFFFFF",
 "Description": "<div ><a href='http:\/\/www.tottenhamhotspur.com\/' >Tottenham Hotspur<\/a><\/div><div >White Hart Lane<br>Capacity: 36,240<\/div>" }, "geometry": { "type": "Point", "coordinates": [ -0.065799951553345, 51.6033054661156, 0.0 ] } },
{ "type": "Feature", "properties": { "Name": "Middlesborough",
"Color" : "#FF0000",
 "Description": "<div ><a href='http:\/\/www.mfc.premiumtv.co.uk' >Middlesbrough<\/a><\/div><div >Riverside Stadium<br>Capacity: 35,100<\/div>" }, "geometry": { "type": "Point", "coordinates": [ -1.21696650981903, 54.578302221709798, 0.0 ] } },
{ "type": "Feature", "properties": { "Name": "Bolton Wanderers", 
"Color" : "#FFFFFF",
"Description": "<div ><a href='http:\/\/www.bwfc.premiumtv.co.uk' >Bolton Wanderers<\/a><\/div><div >Reebok Stadium<br>Capacity: 28,723<\/div>" }, "geometry": { "type": "Point", "coordinates": [ -2.5356262922287, 53.580576192125697, 0.0 ] } },
{ "type": "Feature", "properties": { "Name": "Charlton Athletic", 
"Color" : "#FF0000",
"Description": "<div ><a href='http:\/\/www.cafc.co.uk\/' >Charlton Athletic<\/a><\/div><div >The Valley<br>Capacity: 27,111<\/div>" }, "geometry": { "type": "Point", "coordinates": [ 0.036542415618896, 51.486367086419001, 0.0 ] } },
{ "type": "Feature", "properties": { "Name": "Reading", 
"Color" : "#0000FF",
"Description": "<a href='http:\/\/www.readingfc.premiumtv.co.uk' >Reading<\/a><\/div><div >Madejski Stadium<br>Capacity: 24,045<\/div>" }, "geometry": { "type": "Point", "coordinates": [ -0.982664823532104, 51.422353019128302, 0.0 ] } },
{ "type": "Feature", "properties": { "Name": "Fulham",
"Color" : "#FFFFFF",
 "Description": "<div ><a href='http:\/\/www.fulhamfc.com' >Fulham<\/a><\/div><div >Craven Cottage <br>Capacity: 22,480<\/div>" }, "geometry": { "type": "Point", "coordinates": [ -0.221641659736633, 51.474894615199297, 0.0 ] } },
{ "type": "Feature", "properties": { "Name": "Portsmouth", 
"Color" : "#0000FF",
"Description": "<div ><a href='http:\/\/www.pompeyfc.premiumtv.co.uk' >Portsmouth<\/a><\/div><div >Fratton Park<br>Capacity: 20,288<\/div>" }, "geometry": { "type": "Point", "coordinates": [ -1.06383115053177, 50.7963687532203, 0.0 ] } },
{ "type": "Feature", "properties": { "Name": "Watford",
"Color" : "#FFFF00",
 "Description": "<div ><a href='http:\/\/www.watfordfc.premiumtv.co.uk' >Watford<\/a><\/div><div >Vicarage Road<br>Capacity: 19,920<\/div>" }, "geometry": { "type": "Point", "coordinates": [ -0.401580333709717, 51.6499141492462, 0.0 ] } }
]
}